[
  {
    "slug": "illinois",
    "name": "Illinois",
    "abbr": "IL",
    "place": "Bradford",
    "lat": 40.9903,
    "lng": -89.6502
  },
  {
    "slug": "nebraska",
    "name": "Nebraska",
    "abbr": "NE",
    "place": "Grand Island",
    "lat": 40.9264,
    "lng": -98.342
  },
  {
    "slug": "idaho",
    "name": "Idaho",
    "abbr": "ID",
    "place": "Twin Falls",
    "lat": 42.5555,
    "lng": -114.4701
  },
  {
    "slug": "arkansas",
    "name": "Arkansas",
    "abbr": "AR",
    "place": "Cave Springs",
    "lat": 36.2641,
    "lng": -94.2311
  },
  {
    "slug": "florida",
    "name": "Florida",
    "abbr": "FL",
    "place": "North Florida",
    "lat": 30.3322,
    "lng": -81.6557
  }
]
