[
  {
    "slug": "new-york",
    "name": "New York",
    "abbr": "NY",
    "place": "Arkport",
    "heroIntro": "Site 1: May 25, 2026 - May 30, 2026",
    "lat": 42.3934,
    "lng": -77.6964
  },
  {
    "slug": "illinois",
    "name": "Illinois",
    "abbr": "IL",
    "place": "Bradford",
    "heroIntro": "Site 2: June 1, 2026 - June 8, 2026",
    "lat": 40.9903,
    "lng": -89.6502
  },
  {
    "slug": "nebraska",
    "name": "Nebraska",
    "abbr": "NE",
    "place": "Grand Island",
    "heroIntro": "Site 3: June 9, 2026 - June 16, 2026",
    "lat": 40.9264,
    "lng": -98.342
  },
  {
    "slug": "idaho",
    "name": "Idaho",
    "abbr": "ID",
    "place": "Twin Falls",
    "heroIntro": "Site 4: June 21 - June 26, 2026",
    "lat": 42.5555,
    "lng": -114.4701
  },
  {
    "slug": "arkansas",
    "name": "Arkansas",
    "abbr": "AR",
    "place": "Cave Springs",
    "heroIntro": "Site 5: July 9, 2026 - July 15, 2026",
    "lat": 36.2641,
    "lng": -94.2311
  },
  {
    "slug": "florida",
    "name": "Florida",
    "abbr": "FL",
    "place": "North Florida",
    "mapLabelPlaceOnly": true,
    "heroIntro": "Site 6: July 20, 2026 - July 25, 2026",
    "lat": 30.3322,
    "lng": -81.6557
  }
]
